[
  {
    "city": "New York",
    "country": "United States",
    "minLat": 40.476578,
    "minLon": -74.258843,
    "maxLat": 40.91763,
    "maxLon": -73.700233
  },
  {
    "city": "London",
    "country": "United Kingdom",
    "minLat": 51.5068709,
    "minLon": -0.1138295,
    "maxLat": 51.5233122,
    "maxLon": -0.0727619
  },
  {
    "city": "Paris",
    "country": "France",
    "minLat": 48.8155755,
    "minLon": 2.224122,
    "maxLat": 48.902156,
    "maxLon": 2.4697602
  },
  {
    "city": "Madrid",
    "country": "Spain",
    "minLat": 40.3119774,
    "minLon": -3.8889539,
    "maxLat": 40.6437293,
    "maxLon": -3.5179163
  },
  {
    "city": "Rome",
    "country": "Italy",
    "minLat": 41.6556417,
    "minLon": 12.2344669,
    "maxLat": 42.1410285,
    "maxLon": 12.8557603
  },
  {
    "city": "Istanbul",
    "country": "Turkey",
    "minLat": 40.846381,
    "minLon": 28.8158715,
    "maxLat": 41.166381,
    "maxLon": 29.1358715
  },
  {
    "city": "Amsterdam",
    "country": "Netherlands",
    "minLat": 52.2781742,
    "minLon": 4.7287776,
    "maxLat": 52.4310638,
    "maxLon": 5.0791622
  },
  {
    "city": "Berlin",
    "country": "Germany",
    "minLat": 52.3382448,
    "minLon": 13.088345,
    "maxLat": 52.6755087,
    "maxLon": 13.7611609
  },
  {
    "city": "New Delhi",
    "country": "India",
    "minLat": 28.4046285,
    "minLon": 76.8388351,
    "maxLat": 28.8834464,
    "maxLon": 77.3452524
  },
  {
    "city": "Tokyo",
    "country": "Japan",
    "minLat": 20.2145811,
    "minLon": 135.8536855,
    "maxLat": 35.8984245,
    "maxLon": 154.205541
  },
  {
    "city": "Mumbai",
    "country": "India",
    "minLat": 18.8939566,
    "minLon": 72.776333,
    "maxLat": 19.2694771,
    "maxLon": 72.9817485
  },
  {
    "city": "Bengaluru",
    "country": "India",
    "minLat": 12.8336251,
    "minLon": 77.4600507,
    "maxLat": 13.1426598,
    "maxLon": 77.7843613
  },
  {
    "city": "San Francisco",
    "country": "United States",
    "minLat": 37.6403143,
    "minLon": -123.173825,
    "maxLat": 37.9296678,
    "maxLon": -122.2814578
  },
  {
    "city": "Toronto",
    "country": "Canada",
    "minLat": 43.5796082,
    "minLon": -79.6392832,
    "maxLat": 43.8554425,
    "maxLon": -79.1132193
  },
  {
    "city": "Montreal",
    "country": "Canada",
    "minLat": 45.4100756,
    "minLon": -73.9741567,
    "maxLat": 45.7047897,
    "maxLon": -73.4742952
  },
  {
    "city": "Frankfurt",
    "country": "Germany",
    "minLat": 50.0153529,
    "minLon": 8.4727605,
    "maxLat": 50.2271424,
    "maxLon": 8.8004049
  },
  {
    "city": "Barcelona",
    "country": "Spain",
    "minLat": 41.3170353,
    "minLon": 2.0524977,
    "maxLat": 41.4679135,
    "maxLon": 2.2283555
  },
  {
    "city": "Beijing",
    "country": "China",
    "minLat": 23.1201224,
    "minLon": 113.2565662,
    "maxLat": 23.1344265,
    "maxLon": 113.2699493
  },
  {
    "city": "Rio de Janeiro",
    "country": "Brazil",
    "minLat": -23.0827051,
    "minLon": -43.796252,
    "maxLat": -22.7460878,
    "maxLon": -43.0990811
  },
  {
    "city": "Sydney",
    "country": "Australia",
    "minLat": -34.1732416,
    "minLon": 150.260825,
    "maxLat": -33.3641864,
    "maxLon": 151.343898
  },
  {
    "city": "Dubai",
    "country": "United Arab Emirates",
    "minLat": 25.1047227,
    "minLon": 55.1324146,
    "maxLat": 25.4247227,
    "maxLon": 55.4524146
  },
  {
    "city": "Bangkok",
    "country": "Thailand",
    "minLat": 13.2191019,
    "minLon": 100.3278772,
    "maxLat": 13.9551693,
    "maxLon": 100.9386039
  },
  {
    "city": "Shanghai",
    "country": "China",
    "minLat": 26.0657944,
    "minLon": 119.2759047,
    "maxLat": 26.0749214,
    "maxLon": 119.3000874
  },
  {
    "city": "Moscow",
    "country": "Russia",
    "minLat": 55.516684,
    "minLon": 37.290502,
    "maxLat": 55.9577717,
    "maxLon": 37.9674277
  },
  {
    "city": "Cairo",
    "country": "Egypt",
    "minLat": 29.7483062,
    "minLon": 31.2200331,
    "maxLat": 30.3209168,
    "maxLon": 31.9090054
  },
  {
    "city": "Mexico City",
    "country": "Mexico",
    "minLat": 19.2419543,
    "minLon": -99.3150003,
    "maxLat": 19.5796926,
    "maxLon": -98.9750504
  },
  {
    "city": "Seoul",
    "country": "South Korea",
    "minLat": 37.4285424,
    "minLon": 126.7644328,
    "maxLat": 37.7014794,
    "maxLon": 127.1837702
  },
  {
    "city": "Los Angeles",
    "country": "United States",
    "minLat": 33.659541,
    "minLon": -118.6681798,
    "maxLat": 34.337306,
    "maxLon": -118.1552983
  },
  {
    "city": "Singapore",
    "country": "Singapore",
    "minLat": 1.1265744,
    "minLon": 103.5655616,
    "maxLat": 1.5143183,
    "maxLon": 104.5716696
  },
  {
    "city": "Prague",
    "country": "Czech Republic",
    "minLat": 49.9419006,
    "minLon": 14.2244355,
    "maxLat": 50.1774301,
    "maxLon": 14.7067867
  },
  {
    "city": "Vienna",
    "country": "Austria",
    "minLat": 48.1179069,
    "minLon": 16.181831,
    "maxLat": 48.3226679,
    "maxLon": 16.5775132
  },
  {
    "city": "Buenos Aires",
    "country": "Argentina",
    "minLat": -34.7058155,
    "minLon": -58.5314504,
    "maxLat": -34.5265535,
    "maxLon": -58.3351423
  },
  {
    "city": "Florence",
    "country": "Italy",
    "minLat": 43.7258716,
    "minLon": 11.1497598,
    "maxLat": 43.8354631,
    "maxLon": 11.3389044
  },
  {
    "city": "Lisbon",
    "country": "Portugal",
    "minLat": 38.6913994,
    "minLon": -9.2298356,
    "maxLat": 38.7967584,
    "maxLon": -9.0863328
  },
  {
    "city": "Antalya",
    "country": "Turkey",
    "minLat": 36.7265728,
    "minLon": 30.5430242,
    "maxLat": 37.0465728,
    "maxLon": 30.8630242
  },
  {
    "city": "Ho Chi Minh City",
    "country": "Vietnam",
    "minLat": 8.3456879,
    "minLon": 105.9769387,
    "maxLat": 11.5015885,
    "maxLon": 108.4311207
  },
  {
    "city": "Kuala Lumpur",
    "country": "Malaysia",
    "minLat": 2.9916964,
    "minLon": 101.5342371,
    "maxLat": 3.3116964,
    "maxLon": 101.8542371
  },
  {
    "city": "Milan",
    "country": "Italy",
    "minLat": 45.3867381,
    "minLon": 9.0408867,
    "maxLat": 45.5358482,
    "maxLon": 9.2781103
  },
  {
    "city": "Athens",
    "country": "Greece",
    "minLat": 37.8155648,
    "minLon": 23.5748324,
    "maxLat": 38.1355648,
    "maxLon": 23.8948324
  },
  {
    "city": "Jerusalem",
    "country": "Israel",
    "minLat": 31.7096214,
    "minLon": 35.0852011,
    "maxLat": 31.8826655,
    "maxLon": 35.2650458
  },
  {
    "city": "Dubrovnik",
    "country": "Croatia",
    "minLat": 42.6208867,
    "minLon": 17.7655924,
    "maxLat": 42.7803608,
    "maxLon": 18.1581147
  },
  {
    "city": "Cape Town",
    "country": "South Africa",
    "minLat": -34.0888301,
    "minLon": 18.2572197,
    "maxLat": -33.7688301,
    "maxLon": 18.5772197
  },
  {
    "city": "Agra",
    "country": "India",
    "minLat": 27.045464,
    "minLon": 77.851022,
    "maxLat": 27.2963239,
    "maxLon": 78.2207625
  },
  {
    "city": "Venice",
    "country": "Italy",
    "minLat": 45.2312466,
    "minLon": 12.1668349,
    "maxLat": 45.5779981,
    "maxLon": 12.5965709
  },
  {
    "city": "Mecca",
    "country": "Saudi Arabia",
    "minLat": 21.1198192,
    "minLon": 39.5058552,
    "maxLat": 21.8480401,
    "maxLon": 40.47561
  },
  {
    "city": "Orlando",
    "country": "United States",
    "minLat": 28.3480634,
    "minLon": -81.5075377,
    "maxLat": 28.614283,
    "maxLon": -81.1241435
  },
  {
    "city": "Santiago",
    "country": "Chile",
    "minLat": -33.4785698,
    "minLon": -70.6920527,
    "maxLat": -33.425591,
    "maxLon": -70.6249963
  },
  {
    "city": "Osaka",
    "country": "Japan",
    "minLat": 34.586154,
    "minLon": 135.3099784,
    "maxLat": 34.768849,
    "maxLon": 135.5991702
  },
  {
    "city": "Dublin",
    "country": "Ireland",
    "minLat": 53.2987342,
    "minLon": -6.3870259,
    "maxLat": 53.4105416,
    "maxLon": -6.1148829
  },
  {
    "city": "Edinburgh",
    "country": "United Kingdom",
    "minLat": 55.8187919,
    "minLon": -3.4495326,
    "maxLat": 56.0040837,
    "maxLon": -3.0749528
  },
  {
    "city": "Havana",
    "country": "Cuba",
    "minLat": 22.975305,
    "minLon": -82.5189631,
    "maxLat": 23.295305,
    "maxLon": -82.1989631
  },
  {
    "city": "Marrakech",
    "country": "Morocco",
    "minLat": 31.5441986,
    "minLon": -8.0893315,
    "maxLat": 31.7104265,
    "maxLon": -7.8847385
  }
]
