[
  {
    "city": "New York",
    "country": "United States",
    "minLat": 40.30,
    "minLon": -75.80,
    "maxLat": 41.50,
    "maxLon": -72.70
  },
  {
    "city": "London",
    "country": "United Kingdom",
    "minLat": 51.2867601,
    "minLon": -0.5103751,
    "maxLat": 51.6918741,
    "maxLon": 0.3340155
  },
  {
    "city": "Paris",
    "country": "France",
    "minLat": 48.14,
    "minLon": 1.45,
    "maxLat": 49.23,
    "maxLon": 3.57
  },
  {
    "city": "Madrid",
    "country": "Spain",
    "minLat": 40.15,
    "minLon": -4.50,
    "maxLat": 41.25,
    "maxLon": -3.00
  },
  {
    "city": "Rome",
    "country": "Italy",
    "minLat": 41.30,
    "minLon": 11.90,
    "maxLat": 42.40,
    "maxLon": 13.60
  },
  {
    "city": "Istanbul",
    "country": "Turkey",
    "minLat": 40.70,
    "minLon": 28.30,
    "maxLat": 41.50,
    "maxLon": 29.90
  },
  {
    "city": "Amsterdam",
    "country": "Netherlands",
    "minLat": 52.20,
    "minLon": 4.50,
    "maxLat": 52.60,
    "maxLon": 5.30
  },
  {
    "city": "Berlin",
    "country": "Germany",
    "minLat": 52.20,
    "minLon": 12.80,
    "maxLat": 52.80,
    "maxLon": 13.90
  },
  {
    "city": "New Delhi",
    "country": "India",
    "minLat": 27.50,
    "minLon": 76.50,
    "maxLat": 29.60,
    "maxLon": 78.60
  },
  {
    "city": "Tokyo",
    "country": "Japan",
    "minLat": 35.20,
    "minLon": 139.10,
    "maxLat": 36.30,
    "maxLon": 140.90
  },
  {
    "city": "Mumbai",
    "country": "India",
    "minLat": 18.80,
    "minLon": 72.60,
    "maxLat": 19.60,
    "maxLon": 73.40
  },
  {
    "city": "Bengaluru",
    "country": "India",
    "minLat": 12.60,
    "minLon": 77.20,
    "maxLat": 13.40,
    "maxLon": 78.20
  },
  {
    "city": "San Francisco",
    "country": "United States",
    "minLat": 36.90,
    "minLon": -123.20,
    "maxLat": 38.80,
    "maxLon": -121.40
  },
  {
    "city": "Toronto",
    "country": "Canada",
    "minLat": 43.30,
    "minLon": -80.10,
    "maxLat": 44.20,
    "maxLon": -78.50
  },
  {
    "city": "Montreal",
    "country": "Canada",
    "minLat": 45.20,
    "minLon": -74.40,
    "maxLat": 46.10,
    "maxLon": -73.10
  },
  {
    "city": "Frankfurt",
    "country": "Germany",
    "minLat": 49.80,
    "minLon": 8.20,
    "maxLat": 50.40,
    "maxLon": 9.20
  },
  {
    "city": "Barcelona",
    "country": "Spain",
    "minLat": 41.20,
    "minLon": 1.80,
    "maxLat": 41.70,
    "maxLon": 2.50
  }
]
